City_ID,City,Lat,Lng,Max Temp,Humidity,Cloudiness,Wind Speed,Country,Date
0,ushuaia,-54.8,-68.3,4.81,65,100,4.12,AR,1681759151
1,siljan,59.2884,9.71,9.54,75,85,1.9,NO,1681759672
2,thompson,55.7435,-97.8558,-0.91,37,0,2.57,CA,1681759406
3,san patricio,28.017,-97.5169,28.42,44,75,7.34,US,1681759367
4,tubmanburg,6.8708,-10.8172,26.18,87,20,1.82,LR,1681759673
5,sereflikochisar,38.9393,33.5386,16.19,48,68,0.32,TR,1681759673
6,cape town,-33.9258,18.4232,19.65,83,100,3.13,ZA,1681759514
7,rafai,4.95,23.9167,21.64,83,100,0.16,CF,1681759673
8,saint-joseph,-21.3667,55.6167,24.21,82,100,3.03,RE,1681759673
9,port alfred,-33.5906,26.891,21.16,55,0,1.24,ZA,1681759247
10,ilulissat,69.2167,-51.1,-2.99,74,75,6.69,GL,1681759365
11,antofagasta,-23.65,-70.4,19.6,71,17,4.29,CL,1681759564
12,rikitea,-23.1203,-134.9692,26.3,82,100,6.48,PF,1681759674
13,hobart,-42.8794,147.3294,9.47,89,100,0.51,AU,1681759674
14,sarangani,5.4033,125.4636,28.24,76,38,6.75,PH,1681759394
15,vaini,-21.2,-175.2,23.09,100,100,6.17,TO,1681759674
16,hilo,19.7297,-155.09,26.82,76,0,2.24,US,1681759396
17,santa isabel do rio negro,-0.4139,-65.0192,31.01,56,100,1.14,BR,1681759674
18,kapaa,22.0752,-159.319,25.99,83,0,2.24,US,1681759675
19,petropavlovsk-kamchatskiy,53.0452,158.6483,0.33,100,100,1.0,RU,1681759675
20,hambantota,6.1241,81.1185,27.41,75,0,0.57,LK,1681759675
21,jalu,29.0331,21.5482,23.33,39,1,9.44,LY,1681759675
22,punta arenas,-53.15,-70.9167,5.06,87,100,5.14,CL,1681759343
23,alice springs,-23.7,133.8833,7.75,93,5,2.06,AU,1681759459
24,shenjiamen,29.9576,122.298,16.89,94,0,10.95,CN,1681759679
25,codrington,-38.2667,141.9667,14.68,82,95,5.65,AU,1681759411
26,east london,-33.0153,27.9116,22.23,39,0,2.51,ZA,1681759248
27,butaritari,3.0707,172.7902,28.04,74,9,3.0,KI,1681759679
28,fare,-16.7,-151.0167,27.99,73,100,4.67,PF,1681759679
29,gannan,47.9147,123.5031,8.98,47,100,5.99,CN,1681759679
30,souillac,-20.5167,57.5167,25.21,88,40,3.6,MU,1681759453
31,kadaya,50.9327,119.2911,0.18,54,100,3.52,RU,1681759680
32,mataura,-46.1927,168.8643,11.38,96,100,1.15,NZ,1681759680
33,hinatuan,8.3722,126.3342,25.06,86,86,0.55,PH,1681759680
34,huntsville,34.7304,-86.5861,19.93,22,0,5.66,US,1681759665
35,saint-francois,46.4154,3.9054,8.31,89,0,2.57,FR,1681759681
36,chokurdakh,70.6333,147.9167,-22.56,100,100,1.78,RU,1681759681
37,marang,5.2056,103.2059,26.95,79,100,1.05,MY,1681759681
38,fortuna,40.5982,-124.1573,12.42,71,100,2.68,US,1681759347
39,arraial do cabo,-22.9661,-42.0278,29.98,70,0,6.17,BR,1681759475
40,geraldton,-28.7667,114.6,13.23,94,100,3.6,AU,1681759159
41,barrow,71.2906,-156.7887,-21.99,84,0,5.66,US,1681759682
42,onega,63.9061,38.1404,-2.94,95,10,1.09,RU,1681759682
43,taga,46.95,24.05,12.4,73,100,2.99,RO,1681759683
44,bengkulu,-3.8004,102.2655,24.65,89,87,1.46,ID,1681759438
45,bentiu,9.2333,29.8333,29.24,53,100,3.0,SS,1681759685
46,aklavik,68.2191,-135.0107,-15.0,66,100,4.63,CA,1681759685
47,carnarvon,-24.8667,113.6333,21.98,40,49,5.94,AU,1681759277
48,albany,42.6001,-73.9662,11.14,90,100,0.45,US,1681759118
49,upernavik,72.7868,-56.1549,-13.43,94,87,3.1,GL,1681759686
50,victor harbor,-35.5667,138.6167,14.82,79,42,3.77,AU,1681759686
51,vardo,70.3705,31.1107,3.5,92,100,9.12,NO,1681759686
52,tiksi,71.6872,128.8694,-17.85,100,100,1.88,RU,1681759322
53,vershino-darasunskiy,52.35,115.5167,-6.94,57,6,1.7,RU,1681759687
54,vila velha,-20.3297,-40.2925,28.97,77,20,6.17,BR,1681759687
55,ridgecrest,35.6225,-117.6709,24.15,21,20,4.02,US,1681759552
56,buchanan,5.8808,-10.0467,27.17,82,43,1.96,LR,1681759687
57,port macquarie,-31.4333,152.9167,14.94,62,100,2.95,AU,1681759495
58,saldanha,-33.0117,17.9442,16.03,87,0,6.0,ZA,1681759438
59,brae,60.3964,-1.353,8.1,82,11,5.97,GB,1681759688
60,qaanaaq,77.484,-69.3632,-12.72,81,0,0.59,GL,1681759688
61,juquitiba,-23.9317,-47.0683,27.43,82,40,3.75,BR,1681759689
62,nikolskoye,59.7035,30.7861,4.95,70,54,1.8,RU,1681759689
63,omsk,55.0,73.4,-4.06,38,40,5.0,RU,1681759690
64,salalah,17.0151,54.0924,28.05,78,20,2.06,OM,1681759690
65,hobyo,5.3505,48.5268,28.82,72,9,5.82,SO,1681759691
66,neiafu,-18.65,-173.9833,25.38,94,75,4.12,TO,1681759486
67,cabo san lucas,22.8909,-109.9124,29.78,41,0,5.14,MX,1681759191
68,anloga,5.7947,0.8973,28.53,78,100,5.11,GH,1681759692
69,karratha,-20.7377,116.8463,23.19,30,99,3.92,AU,1681759442
70,beaverlodge,55.2166,-119.4361,5.64,44,100,8.32,CA,1681759693
71,te anau,-45.4167,167.7167,11.94,95,100,0.08,NZ,1681759693
72,atuona,-9.8,-139.0333,27.5,79,25,9.17,PF,1681759693
73,ucluelet,48.9329,-125.5528,4.49,91,100,0.45,CA,1681759693
74,grand gaube,-20.0064,57.6608,25.22,80,100,0.89,MU,1681759693
75,kutum,14.2,24.6667,27.63,13,53,3.45,SD,1681759426
76,bluff,-46.6,168.3333,11.56,87,100,2.93,NZ,1681759694
77,hermanus,-34.4187,19.2345,15.85,84,1,0.58,ZA,1681759234
78,dikson,73.5069,80.5464,-20.33,100,100,1.8,RU,1681759694
79,ecoporanga,-18.3733,-40.8306,28.54,55,25,1.81,BR,1681759695
80,new norfolk,-42.7826,147.0587,8.84,78,79,0.89,AU,1681759695
81,richards bay,-28.783,32.0377,20.77,87,0,3.49,ZA,1681759466
82,saint-philippe,-21.3585,55.7679,24.77,82,100,3.68,RE,1681759428
83,baturaja,-4.1333,104.1667,23.3,99,100,0.57,ID,1681759696
84,lata,40.1629,-8.3327,18.95,47,76,2.11,PT,1681759290
85,sawtell,-30.3833,153.1,18.01,72,75,4.12,AU,1681759697
86,puerto ayora,-0.7393,-90.3518,28.98,90,91,3.58,EC,1681759251
87,puerto baquerizo moreno,-0.9,-89.6,28.55,79,40,1.54,EC,1681759368
88,avarua,-21.2078,-159.775,25.03,57,30,6.17,CK,1681759360
89,fairbanks,64.8378,-147.7164,-3.38,73,75,2.57,US,1681759232
90,sola,-13.8833,167.55,26.94,77,100,4.66,VU,1681759701
91,barauna,-5.08,-37.6167,30.5,77,72,4.54,BR,1681759702
92,mangochi,-14.4782,35.2645,19.99,92,39,3.16,MW,1681759703
93,formello,42.0801,12.3998,14.68,78,68,3.23,IT,1681759704
94,pietarsaari,63.65,22.6833,1.11,76,100,4.05,FI,1681759704
95,dzaoudzi,-12.7887,45.2699,27.94,78,0,3.09,YT,1681759704
96,grand-lahou,5.1367,-5.0242,27.25,87,97,3.11,CI,1681759705
97,virginia beach,36.8529,-75.978,22.81,33,75,10.29,US,1681759550
98,oussouye,12.485,-16.5469,31.1,56,13,5.1,SN,1681759706
99,victoria,22.2855,114.1577,26.29,89,6,3.58,HK,1681759657
100,amapa,1.0,-52.0,24.23,98,100,1.43,BR,1681759707
101,ternate,0.8,127.4,26.97,80,68,2.57,ID,1681759707
102,olds,51.7834,-114.102,7.08,48,100,11.83,CA,1681759501
103,benguela,-12.5763,13.4055,26.46,84,54,1.23,AO,1681759709
104,zhangye,38.9342,100.4517,16.94,29,100,3.91,CN,1681759710
105,menongue,-14.6585,17.691,17.9,70,47,2.76,AO,1681759710
106,saint anthony,45.0205,-93.218,8.03,49,20,10.8,US,1681759710
107,baherden,38.4362,57.4316,12.75,27,0,4.58,TM,1681759710
108,yuci,37.6803,112.7319,17.86,24,3,3.0,CN,1681759711
109,canon city,38.441,-105.2424,23.43,10,0,5.81,US,1681759711
110,roebourne,-20.7833,117.1333,23.08,29,91,4.54,AU,1681759711
111,sao joao da barra,-21.6403,-41.0511,29.05,78,19,5.75,BR,1681759399
112,lebu,-37.6167,-73.65,12.77,64,17,7.64,CL,1681759334
113,mount pleasant,32.7941,-79.8626,24.44,35,0,3.6,US,1681759455
114,yatou,37.15,122.3833,10.34,93,100,1.38,CN,1681759712
115,sur,22.5667,59.5289,27.03,64,83,1.62,OM,1681759713
116,castro,-24.7911,-50.0119,19.31,98,100,1.42,BR,1681759713
117,chicama,-7.8447,-79.1469,26.3,58,83,4.42,PE,1681759714
118,antalaha,-14.9003,50.2788,23.87,89,57,3.16,MG,1681759714
119,hithadhoo,-0.6,73.0833,28.76,65,18,1.06,MV,1681759242
120,cap-aux-meules,47.3821,-61.8597,4.03,75,100,6.17,CA,1681759715
121,jamestown,42.097,-79.2353,5.77,92,100,9.77,US,1681759364
122,san cristobal,7.7669,-72.225,21.1,76,95,1.01,VE,1681759715
123,busselton,-33.65,115.3333,12.88,71,0,3.9,AU,1681759715
124,omboue,-1.5746,9.2618,26.6,86,92,2.17,GA,1681759716
125,bambous virieux,-20.3428,57.7575,25.14,88,40,3.6,MU,1681759716
126,saint george,37.1041,-113.5841,26.91,19,0,2.06,US,1681759717
127,ust-kan,50.9276,84.761,-7.06,95,100,1.81,RU,1681759717
128,bathsheba,13.2167,-59.5167,26.79,63,100,6.65,BB,1681759361
129,suntar,62.1444,117.6319,-14.64,95,82,2.14,RU,1681759717
130,babadag,44.9,28.7167,8.93,71,75,1.54,RO,1681759718
131,longyearbyen,78.2186,15.6401,-5.09,86,75,13.38,SJ,1681759286
132,cherskiy,68.75,161.3,-12.7,88,66,2.29,RU,1681759725
133,olinda,-8.0089,-34.8553,28.85,65,20,4.63,BR,1681759388
134,amethi,26.15,81.8167,30.7,14,0,3.14,IN,1681759725
135,vigrestad,58.5667,5.7,9.98,79,20,4.0,NO,1681759726
136,georgetown,5.4112,100.3354,28.96,83,40,0.0,MY,1681759206
137,provideniya,64.3833,-173.3,-13.2,100,100,0.32,RU,1681759726
138,byron bay,-28.65,153.6167,17.62,68,100,5.93,AU,1681759261
139,minsk,53.9,27.5667,6.86,73,100,2.74,BY,1681759727
140,kambove,-10.8764,26.5969,15.99,97,96,1.96,CD,1681759727
141,touros,-5.1989,-35.4608,28.3,73,24,4.0,BR,1681759250
142,katherine,-14.4667,132.2667,17.18,77,57,3.6,AU,1681759728
143,coahuayana,18.7333,-103.6833,32.86,44,0,3.9,MX,1681759728
144,zig,40.127,-92.7663,16.16,29,0,8.23,US,1681759728
145,pascagoula,30.3658,-88.5561,24.03,28,0,2.73,US,1681759506
146,lamar,33.6668,-95.5836,24.94,34,0,5.14,US,1681759728
147,macklin,52.3334,-109.9348,16.19,27,2,9.08,CA,1681759729
148,seymchan,62.8833,152.4333,-11.38,96,93,1.67,RU,1681759729
149,sioux lookout,50.1001,-91.917,0.04,64,100,7.72,CA,1681759729
150,tuktoyaktuk,69.4541,-133.0374,-15.0,85,100,6.69,CA,1681759730
151,jiexiu,37.0244,111.9125,19.02,27,2,2.02,CN,1681759730
152,lima,-12.0432,-77.0282,24.14,73,100,4.12,PE,1681759001
153,andenes,69.3143,16.1194,5.99,75,75,5.66,NO,1681759730
154,opuwo,-18.0607,13.84,24.96,36,100,3.19,NA,1681759274
155,lat yao,15.751,99.7893,30.48,51,7,3.46,TH,1681759731
156,sao jose da coroa grande,-8.8978,-35.1478,27.68,77,56,3.85,BR,1681759731
157,alofi,-19.0595,-169.9187,23.94,94,100,7.2,NU,1681759351
158,labod,46.2053,17.4542,11.53,88,100,3.65,HU,1681759731
159,ahipara,-35.1667,173.1667,18.76,85,100,5.02,NZ,1681759731
160,hofn,64.2539,-15.2082,9.01,93,75,3.6,IS,1681759732
161,tasiilaq,65.6145,-37.6368,3.09,89,100,9.13,GL,1681759732
162,bredasdorp,-34.5322,20.0403,15.15,85,1,0.9,ZA,1681759339
163,kamaishi,39.2667,141.8833,6.34,74,44,2.31,JP,1681759732
164,pisco,-13.7,-76.2167,26.03,65,0,2.57,PE,1681759424
165,pundaguitan,6.3711,126.1689,27.87,76,5,4.76,PH,1681759733
166,mar del plata,-38.0023,-57.5575,18.86,61,75,3.09,AR,1681759473
167,tarko-sale,64.9225,77.785,-17.82,95,93,2.97,RU,1681759457
168,saint-leu,-21.15,55.2833,25.46,97,100,0.98,RE,1681759733
169,phangnga,8.4509,98.5298,27.02,86,100,1.07,TH,1681759733
170,matagami,49.7502,-77.6328,8.06,100,100,4.12,CA,1681759734
171,iqaluit,63.7506,-68.5145,-13.15,71,40,10.29,CA,1681759332
172,berea,41.3662,-81.8543,5.06,77,100,5.66,US,1681759734
173,yellowknife,62.456,-114.3525,8.29,39,20,6.69,CA,1681759062
174,tazovskiy,67.4667,78.7,-10.35,92,100,4.61,RU,1681759735
175,sarab,38.6066,44.9883,12.85,64,4,1.05,IR,1681759735
176,coos bay,43.3665,-124.2179,8.88,93,75,7.2,US,1681759735
177,yongzhou,26.4559,111.5988,23.09,85,58,2.12,CN,1681759735
178,bethel,41.3712,-73.414,15.76,86,100,3.6,US,1681759328
179,paris,48.8534,2.3488,12.27,78,100,5.14,FR,1681759460
180,san luis,-33.295,-66.3356,19.41,39,40,5.1,AR,1681759736
181,saiha,22.4833,92.9667,20.71,82,3,1.53,IN,1681759736
182,yerbogachen,61.2767,108.0108,-19.19,98,13,0.83,RU,1681759736
183,havre-saint-pierre,50.2334,-63.5986,5.2,70,20,5.66,CA,1681759736
184,lagoa,39.05,-27.9833,14.18,61,1,6.13,PT,1681759737
185,airai,-8.9266,125.4092,15.17,93,99,0.38,TL,1681759737
186,banepa,27.6298,85.5214,19.52,52,20,1.54,NP,1681759737
187,walvis bay,-22.9575,14.5053,23.95,50,28,4.18,NA,1681759433
188,riachao das neves,-11.7461,-44.91,33.74,33,5,1.1,BR,1681759439
189,katsuura,35.1333,140.3,14.67,70,98,5.88,JP,1681759470
190,kodiak,57.79,-152.4072,0.73,37,0,7.72,US,1681759383
191,taksimo,56.3444,114.8794,-11.78,79,1,1.49,RU,1681759738
192,sokolo,14.7328,-6.1219,36.14,9,1,3.62,ML,1681759738
193,la rinconada,37.4873,-5.9826,27.1,17,0,2.06,ES,1681759738
194,poum,-20.2333,164.0167,26.15,82,58,9.29,NC,1681759739
195,agadir,30.4202,-9.5982,19.25,80,19,2.73,MA,1681759739
196,guadalupe,25.6833,-100.25,27.44,100,100,0.0,MX,1681759739
197,huilong,31.8111,121.655,17.12,83,59,4.69,CN,1681759739
198,san felipe,10.3399,-68.7425,29.46,54,100,3.12,VE,1681759739
199,sitka,57.0531,-135.33,6.94,65,20,4.12,US,1681759312
200,deputatskiy,69.3,139.9,-18.46,99,99,1.49,RU,1681759739
201,penticton,49.4806,-119.5858,11.6,25,20,7.2,CA,1681759740
202,chuy,-33.6971,-53.4616,18.15,46,8,4.55,UY,1681759740
203,ponta do sol,32.6667,-17.1,21.51,71,100,0.73,PT,1681759740
204,maragogi,-9.0122,-35.2225,27.52,78,36,3.97,BR,1681759380
205,biggar,55.6167,-3.5167,13.49,92,100,1.29,GB,1681759740
206,hasaki,35.7333,140.8333,8.22,62,100,4.06,JP,1681759408
207,san bartolome de tirajana,27.9248,-15.5733,15.26,72,75,2.57,ES,1681759743
208,varna,43.2167,27.9167,9.93,95,100,3.09,BG,1681759600
209,kawalu,-7.3817,108.2082,23.04,98,100,0.25,ID,1681759750
210,roald,62.5833,6.1333,11.06,76,0,4.12,NO,1681759752
211,wilmington,34.2257,-77.9447,24.38,31,0,8.75,US,1681759691
212,la palma,33.8464,-118.0467,19.05,71,75,3.13,US,1681759761
213,premia de mar,41.4921,2.3652,15.9,69,99,1.44,ES,1681759763
214,plettenberg bay,-34.0527,23.3716,17.39,65,0,1.26,ZA,1681759331
215,kavieng,-2.5744,150.7967,27.55,75,12,1.98,PG,1681759763
216,faya,18.3851,42.4509,17.06,55,1,3.06,SA,1681759764
217,yarmouth,41.7057,-70.2286,16.26,98,100,3.6,US,1681759479
218,vanimo,-2.6741,141.3028,25.15,89,95,4.13,PG,1681759764
219,amboise,47.4125,0.9827,10.3,80,0,4.12,FR,1681759765
220,tautira,-17.7333,-149.15,27.52,78,99,4.69,PF,1681759765
221,dom pedrito,-30.9828,-54.6731,22.8,40,9,3.02,BR,1681759765
222,pevek,69.7008,170.3133,-15.28,76,0,4.77,RU,1681759766
223,freeport,40.6576,-73.5832,20.54,73,100,5.66,US,1681759766
224,mao,39.8885,4.2658,11.31,82,0,3.6,ES,1681759605
225,naze,28.3667,129.4833,19.51,82,18,5.55,JP,1681759767
226,san quintin,30.4833,-115.95,16.39,63,87,8.17,MX,1681759768
227,pimentel,-6.8367,-79.9342,31.16,55,75,2.06,PE,1681759768
228,presidente medici,-11.1753,-61.9014,27.15,91,100,2.27,BR,1681759768
229,torbay,47.6666,-52.7314,4.04,72,20,2.57,CA,1681759769
230,gizo,-8.103,156.8419,27.64,68,100,4.07,SB,1681759769
231,benin,9.5,2.25,30.88,45,18,2.64,BJ,1681759770
232,dicabisagan,17.0818,122.4157,24.95,89,100,0.7,PH,1681759771
233,iskateley,67.6803,53.1512,-3.34,92,100,3.36,RU,1681759425
234,esperance,-33.8667,121.9,17.29,56,100,6.51,AU,1681759772
235,puerto del rosario,28.5004,-13.8627,20.86,64,20,8.23,ES,1681759773
236,tabou,4.423,-7.3528,27.85,80,88,2.49,CI,1681759774
237,mariestad,58.7097,13.8237,8.26,62,23,0.86,SE,1681759775
238,flinders,-34.5833,150.8552,12.32,87,3,0.89,AU,1681759775
239,rybnaya sloboda,55.4613,50.1409,6.68,61,100,4.08,RU,1681759775
240,katangli,51.7102,143.2326,-4.7,90,97,4.71,RU,1681759776
241,isangel,-19.55,169.2667,26.73,87,74,7.53,VU,1681759776
242,yeppoon,-23.1333,150.7333,22.88,85,73,7.59,AU,1681759340
243,nioro,13.35,-15.75,36.11,21,75,4.74,GM,1681759781
244,mahebourg,-20.4081,57.7,25.16,88,40,3.6,MU,1681759781
245,ukiah,39.1502,-123.2078,13.98,55,75,3.6,US,1681759782
246,lavrentiya,65.5833,-171.0,-18.1,98,77,1.37,RU,1681759782
247,chapleau,47.8405,-83.4034,3.05,93,100,2.57,CA,1681759782
248,kloulklubed,7.0419,134.2556,24.28,74,84,3.05,PW,1681759783
249,dengfeng,34.4553,113.0281,20.6,62,100,1.4,CN,1681759783
250,bonavista,48.6499,-53.1147,-0.05,84,11,2.87,CA,1681759783
251,marsabit,2.3284,37.9899,19.62,81,100,5.05,KE,1681759784
252,biak,-0.9131,122.8766,24.54,84,100,0.94,ID,1681759784
253,nabire,-3.3667,135.4833,23.18,93,100,1.09,ID,1681759395
254,khatanga,71.9667,102.5,-19.73,100,100,3.34,RU,1681759785
255,camacha,33.0833,-16.3333,16.68,82,40,8.23,PT,1681759786
256,shingu,33.7333,135.9833,9.85,74,2,2.2,JP,1681759380
257,ahuimanu,21.4447,-157.8378,26.84,69,40,2.57,US,1681759786
258,weston,26.1004,-80.3998,32.23,76,96,0.45,US,1681759371
259,kaitangata,-46.2817,169.8464,11.41,94,100,1.87,NZ,1681759787
260,coihaique,-45.5752,-72.0662,7.97,61,75,3.6,CL,1681759788
261,kruisfontein,-34.0033,24.7314,14.38,64,0,1.12,ZA,1681759463
262,rio branco,-9.9747,-67.81,30.34,74,40,3.09,BR,1681759574
263,avera,33.194,-82.5271,21.73,30,0,7.15,US,1681759789
264,barranca,-10.75,-77.7667,25.62,69,100,3.92,PE,1681759789
265,karaidel,55.8337,56.9069,2.46,74,68,1.44,RU,1681759789
266,margate,51.3813,1.3862,8.83,83,92,3.13,GB,1681759247
267,barsovo,61.1667,73.1667,-17.77,97,99,2.91,RU,1681759790
268,guerrero negro,27.9769,-114.0611,17.58,60,12,8.85,MX,1681759484
269,betsiamites,48.9413,-68.646,4.05,89,100,8.67,CA,1681759778
270,grindavik,63.8424,-22.4338,9.97,87,75,11.32,IS,1681759790
271,kuliyapitiya,7.4688,80.0401,24.82,88,1,1.21,LK,1681759790
272,severo-kurilsk,50.6789,156.125,0.9,98,100,6.67,RU,1681759791
273,mwense,-10.3845,28.698,18.57,95,33,2.09,ZM,1681759791
274,koungou,-12.7336,45.2042,27.84,78,0,3.09,YT,1681759791
275,sabha,27.0377,14.4283,25.26,27,100,5.98,LY,1681759791
276,sinnamary,5.3833,-52.95,26.23,88,100,5.19,GF,1681759792
277,kailua,21.4022,-157.7394,26.99,74,100,4.03,US,1681759792
278,itoman,26.1247,127.6694,22.43,83,20,5.14,JP,1681759332
279,dryden,49.7833,-92.7503,1.16,55,100,6.69,CA,1681759468
280,port elizabeth,-33.918,25.5701,16.29,90,0,1.54,ZA,1681759337
281,mbandaka,0.0487,18.2603,24.38,77,100,1.83,CD,1681759792
282,mazagao,-0.115,-51.2894,30.03,90,96,1.29,BR,1681759792
283,mehamn,71.0357,27.8492,3.97,87,75,4.63,NO,1681759793
284,saskylakh,71.9167,114.0833,-23.51,100,100,2.12,RU,1681759795
285,dubbo,-32.25,148.6167,10.07,87,0,5.14,AU,1681759472
286,fort nelson,58.8053,-122.7002,9.77,46,75,4.63,CA,1681759795
287,rameshki,57.3439,36.0453,7.21,81,100,1.2,RU,1681759795
288,tutoia,-2.7619,-42.2744,27.0,87,100,2.22,BR,1681759424
289,baiquan,47.5833,126.0833,7.75,42,100,6.79,CN,1681759796
290,shenzhen,22.5455,114.0683,25.61,91,6,2.55,CN,1681759796
291,ancud,-41.8697,-73.8203,11.05,62,100,4.34,CL,1681759797
292,yulara,-25.2406,130.9889,14.36,46,15,3.32,AU,1681759797
293,rio grande,-32.035,-52.0986,23.06,69,68,6.83,BR,1681759333
294,faanui,-16.4833,-151.75,28.02,74,100,5.26,PF,1681759797
295,narsaq,60.9167,-46.05,10.12,74,100,1.56,GL,1681759797
296,asau,46.4333,26.4,6.51,95,99,1.97,RO,1681759798
297,kulunda,52.566,78.9385,-5.89,64,0,3.25,RU,1681759798
298,khandyga,62.6667,135.6,-11.07,98,73,1.38,RU,1681759798
299,bambanglipuro,-7.95,110.2833,25.32,87,100,1.03,ID,1681759798
300,pakxan,18.3778,103.6601,27.33,58,0,1.23,LA,1681759798
301,noumea,-22.2763,166.4572,26.67,99,100,4.97,NC,1681759799
302,pychas,56.5033,52.4409,6.42,62,100,1.65,RU,1681759799
303,dhidhdhoo,6.8833,73.1,28.52,71,5,0.66,MV,1681759250
304,saint-pierre,-21.3393,55.4781,24.82,78,0,3.09,RE,1681759366
305,linxia,35.6003,103.2064,13.12,38,98,0.76,CN,1681759801
306,ponte nova,-20.4164,-42.9086,24.81,80,3,2.21,BR,1681759803
307,warrnambool,-38.3833,142.4833,14.6,80,55,5.91,AU,1681759804
308,leningradskiy,69.3833,178.4167,-15.83,80,2,2.65,RU,1681759807
309,taoudenni,22.6783,-3.9836,33.87,9,0,5.12,ML,1681759455
310,gold coast,-28.0,153.4333,20.5,78,91,4.63,AU,1681759778
311,rio verde de mato grosso,-18.9181,-54.8442,27.7,75,98,1.2,BR,1681759812
312,merced,37.1666,-120.7516,18.36,51,100,2.94,US,1681759813
313,vanavara,60.34,102.2797,-14.62,95,98,1.8,RU,1681759813
314,alexandria,31.2156,29.9553,20.67,65,0,4.47,EG,1681759407
315,maniitsoq,65.4167,-52.9,-1.66,75,11,9.16,GL,1681759814
316,vestmanna,62.1564,-7.1664,9.51,93,75,7.72,FO,1681759815
317,parchim,53.4263,11.8488,8.17,88,95,5.38,DE,1681759816
318,pangkalanbuun,-2.6833,111.6167,23.52,97,100,0.41,ID,1681759816
319,bor,56.3567,44.0669,9.96,44,100,1.45,RU,1681759363
320,shimoda,34.6667,138.95,9.5,65,16,3.24,JP,1681759817
321,stornoway,58.2093,-6.3865,13.85,83,26,1.54,GB,1681759817
322,andradas,-22.0681,-46.5692,21.96,89,32,2.92,BR,1681759818
323,tirumullaivasal,11.2333,79.8333,25.44,81,0,2.25,IN,1681759819
324,chaohu,31.6,117.8667,23.2,75,100,2.74,CN,1681759819
325,aksu,41.1231,80.2644,19.53,25,100,2.78,CN,1681759823
326,ixtapa,20.7,-105.2,25.57,73,0,5.66,MX,1681759365
327,road town,18.4167,-64.6167,28.02,61,20,1.54,VG,1681759824
328,nevers,46.9167,3.3333,7.35,92,14,2.91,FR,1681759824
329,ketchikan,55.3422,-131.6461,7.26,65,40,3.09,US,1681759824
330,isabela,6.7085,121.9711,26.66,80,87,1.16,PH,1681759825
331,xining,36.6167,101.7667,10.16,39,2,1.13,CN,1681759390
332,nanortalik,60.1432,-45.2371,0.96,87,100,2.23,GL,1681759827
333,kieta,-6.2167,155.6333,25.15,74,23,1.04,PG,1681759827
334,rongcheng,30.634,117.8517,22.4,77,100,1.84,CN,1681759827
335,clarksburg,39.2807,-80.3445,10.03,57,100,6.69,US,1681759828
336,meulaboh,4.1363,96.1285,25.95,87,41,0.82,ID,1681759828
337,kendari,-3.945,122.4989,24.55,94,100,1.41,ID,1681759829
338,burnie,-41.0667,145.9167,13.86,93,100,0.66,AU,1681759829
339,sao filipe,14.8961,-24.4956,23.54,80,6,9.01,CV,1681759830
340,sao francisco do sul,-26.2433,-48.6381,25.95,83,75,3.09,BR,1681759830
341,lakselv,70.0513,24.9718,4.9,70,100,7.2,NO,1681759832
342,bossangoa,6.4926,17.4552,26.52,62,100,2.1,CF,1681759833
343,rio gallegos,-51.6226,-69.2181,3.03,93,100,8.23,AR,1681759393
344,sobolevo,54.4299,31.8996,8.11,77,100,2.11,RU,1681759834
345,evensk,61.95,159.2333,0.59,98,100,6.6,RU,1681759835
346,the valley,18.217,-63.0578,28.23,74,20,4.12,AI,1681759835
347,stutterheim,-32.5708,27.424,18.45,25,0,2.42,ZA,1681759836
348,homer,59.6425,-151.5483,1.94,81,100,0.89,US,1681759836
349,egvekinot,66.3167,-179.1667,-15.74,97,94,1.29,RU,1681759836
350,cidreira,-30.1811,-50.2056,22.06,67,60,6.79,BR,1681759408
351,port hardy,50.6996,-127.4199,6.0,93,100,10.8,CA,1681759837
352,uyemskiy,64.4743,40.8524,-0.97,68,0,2.0,RU,1681759837
353,vostok,46.4856,135.8833,-3.04,67,52,1.71,RU,1681759838
354,aparecida do taboado,-20.0867,-51.0936,27.95,71,67,2.66,BR,1681759838
355,neuquen,-38.9516,-68.0591,15.94,39,0,4.12,AR,1681759549
356,acapulco,16.8634,-99.8901,31.9,55,0,3.6,MX,1681759743
357,korem,12.5058,39.5228,15.13,68,13,1.16,ET,1681759840
358,miraflores,19.2167,-98.8083,22.36,43,92,3.78,MX,1681759840
359,luderitz,-26.6481,15.1594,21.7,42,3,0.53,NA,1681759309
360,batsfjord,70.6345,29.7185,3.96,93,100,11.32,NO,1681759841
361,villa carlos paz,-31.4241,-64.4978,23.36,36,12,3.13,AR,1681759596
362,esqueda,30.7167,-109.5833,26.69,10,99,8.61,MX,1681759844
363,dwarka,22.2394,68.9678,26.64,84,0,4.49,IN,1681759845
364,puerto escondido,15.85,-97.0667,30.46,66,0,3.6,MX,1681759846
365,ulaanbaatar,47.9077,106.8832,2.07,38,0,4.0,MN,1681759655
366,christchurch,-43.5333,172.6333,14.15,79,100,2.57,NZ,1681759326
367,lander,42.833,-108.7307,17.66,25,0,1.54,US,1681759687
368,nha trang,12.25,109.1833,26.0,89,74,1.62,VN,1681759846
369,ouallam,14.3188,2.0866,32.75,9,0,4.82,NE,1681759846
370,dunedin,-45.8742,170.5036,13.64,63,100,0.36,NZ,1681759848
371,cayenne,4.9333,-52.3333,26.02,94,75,2.06,GF,1681759848
372,komsomolskiy,40.4272,71.7189,11.4,62,75,2.06,UZ,1681759848
373,goderich,43.7501,-81.7165,4.39,93,100,5.66,CA,1681759848
374,sao domingos,-13.3983,-46.3183,27.89,57,90,2.28,BR,1681759848
375,malanje,-9.5402,16.341,17.19,98,98,1.8,AO,1681759848
376,lauterbach,50.6333,9.4,9.54,87,19,1.96,DE,1681759849
377,chapais,49.7834,-74.8492,10.88,89,100,5.95,CA,1681759849
378,dingle,10.9995,122.6711,24.74,89,13,2.37,PH,1681759849
379,muros,42.7762,-9.0603,19.49,76,10,4.54,ES,1681759849
380,nyrob,60.733,56.7202,-3.46,99,100,1.27,RU,1681759850
381,hamilton,39.1834,-84.5333,11.11,55,100,8.75,US,1681759595
382,carutapera,-1.195,-46.02,27.97,78,97,2.48,BR,1681759853
383,andijon,40.7821,72.3442,12.6,54,100,3.15,UZ,1681759853
384,pak chong,14.708,101.4161,26.1,68,3,1.68,TH,1681759853
385,namibe,-15.1961,12.1522,24.43,79,9,2.68,AO,1681759426
386,verkhoyansk,67.5447,133.385,-6.02,97,100,0.94,RU,1681759854
387,terre haute,39.4667,-87.4139,13.87,55,100,7.2,US,1681759835
388,parakan,-6.4191,106.0081,23.07,96,98,1.2,ID,1681759854
389,atasu,48.6814,71.6433,-2.64,70,1,2.79,KZ,1681759855
390,ouahigouya,13.5828,-2.4216,31.83,7,34,2.7,BF,1681759855
391,tupik,54.4253,119.9327,-12.37,88,97,2.33,RU,1681759855
392,la ronge,55.1001,-105.2842,9.14,34,40,9.26,CA,1681759427
393,kano,12.0001,8.5167,31.94,43,0,2.57,NG,1681759855
394,carinhanha,-14.3047,-43.765,29.52,46,100,2.86,BR,1681759856
395,tual,-5.6667,132.75,28.21,75,100,3.12,ID,1681759856
396,kavaratti,10.5669,72.642,28.88,75,3,2.34,IN,1681759856
397,norman wells,65.282,-126.8329,-7.98,73,100,6.69,CA,1681759856
398,qaqortoq,60.7167,-46.0333,1.0,77,100,2.03,GL,1681759366
399,olafsvik,64.8945,-23.7142,7.29,90,100,6.68,IS,1681759856
400,sao luiz gonzaga,-28.4083,-54.9608,24.28,48,30,5.08,BR,1681759851
401,kuznetsk,53.1167,46.6004,7.14,51,100,2.28,RU,1681759857
402,wahiawa,21.5028,-158.0236,26.18,70,0,0.0,US,1681759857
403,roma,43.2128,-75.4557,13.74,77,100,1.54,US,1681759266
404,ruteng,-8.6136,120.4721,16.57,91,99,0.4,ID,1681759857
405,zhigansk,66.7697,123.3711,-13.39,96,78,3.98,RU,1681759857
406,loukhi,66.0764,33.0381,-3.68,100,54,1.56,RU,1681759857
407,talara,-4.5772,-81.2719,30.42,70,40,3.09,PE,1681759858
408,mount gambier,-37.8333,140.7667,14.68,82,96,4.19,AU,1681759179
409,manica,49.0,-1.1667,7.37,97,1,3.46,FR,1681759858
410,marietta,33.9526,-84.5499,21.46,24,0,7.72,US,1681759776
411,umm lajj,25.0213,37.2685,25.64,37,0,2.63,SA,1681759858
412,barcelona,41.3888,2.159,15.64,75,40,2.06,ES,1681759858
413,peniche,39.3558,-9.3811,20.81,71,78,4.85,PT,1681759859
414,lahij,13.1667,44.5833,28.06,43,1,1.74,YE,1681759859
415,honiara,-9.4333,159.95,24.31,85,76,2.23,SB,1681759859
416,mexico,15.0646,120.7198,26.84,86,25,1.18,PH,1681759045
417,mandalgovi,45.7625,106.2708,3.62,28,3,10.09,MN,1681759860
418,bereda,43.2686,-7.5406,14.76,72,6,2.16,ES,1681759860
419,qui nhon,13.7667,109.2333,24.02,92,100,0.37,VN,1681759860
420,melito di porto salvo,37.9222,15.7714,14.0,82,75,4.12,IT,1681759860
421,zhashkiv,49.2454,30.1102,8.95,58,100,5.45,UA,1681759860
422,ribeira grande,38.5167,-28.7,16.22,55,20,6.69,PT,1681759434
423,ghanzi,-21.5667,21.7833,22.43,43,74,1.6,BW,1681759861
424,chany,55.3121,76.7647,-6.23,36,72,6.77,RU,1681759861
425,verkh-usugli,52.7,115.1667,-7.28,75,18,1.69,RU,1681759861
426,jardim do serido,-6.5844,-36.7744,29.79,58,100,3.84,BR,1681759862
427,ndele,8.4109,20.6473,25.48,66,100,1.08,CF,1681759862
428,college,64.8569,-147.8028,-3.39,73,75,2.57,US,1681759308
429,fort madison,40.6298,-91.3151,14.38,28,0,11.32,US,1681759863
430,adrar,20.5022,-10.0711,31.41,19,38,5.99,MR,1681759863
431,florence,43.7667,11.25,15.3,58,0,3.13,IT,1681759864
432,parana,-31.732,-60.5238,23.61,56,1,2.01,AR,1681759677
433,morehead,37.2711,-87.1764,16.86,22,0,7.2,US,1681759689
434,lucena,13.9314,121.6172,26.16,95,30,1.48,PH,1681759822
435,puli,23.9664,120.9695,23.45,52,8,2.33,TW,1681759865
436,north platte,41.1239,-100.7654,23.32,18,0,4.63,US,1681759867
437,lazaro cardenas,17.9583,-102.2,30.09,55,1,5.19,MX,1681759308
438,portland,45.5234,-122.6762,10.05,76,100,5.66,US,1681759265
439,novyy urgal,51.0736,132.5642,0.92,60,98,0.74,RU,1681759869
440,husavik,66.0449,-17.3389,8.06,72,2,7.64,IS,1681759869
441,aksarka,66.5606,67.7975,-11.79,84,75,6.91,RU,1681759870
442,talnakh,69.4865,88.3972,-15.44,80,65,1.56,RU,1681759351
443,marzuq,14.4,46.4667,22.78,55,0,3.25,YE,1681759870
444,buraydah,26.326,43.975,25.25,53,100,2.63,SA,1681759870
445,adamovka,51.5223,59.9396,0.58,89,10,4.37,RU,1681759871
446,bonthe,7.5264,-12.505,28.2,77,43,3.81,SL,1681759383
447,amahai,-3.3333,128.9167,25.8,86,100,1.52,ID,1681759871
448,kahului,20.8947,-156.47,27.13,64,20,2.68,US,1681759694
449,seoul,37.5683,126.9778,15.69,43,100,3.09,KR,1681759760
450,marathon,44.9,-89.7668,-0.42,85,100,10.8,US,1681759872
451,prince rupert,54.3161,-130.3201,7.05,60,20,2.57,CA,1681759819
452,nouadhibou,20.931,-17.0347,20.99,73,54,6.17,MR,1681759872
453,dawei,14.0833,98.2,24.82,87,21,0.94,MM,1681759873
454,ayan,56.45,138.1667,-9.01,93,74,1.64,RU,1681759873
455,waverly,42.7392,-84.6208,4.41,73,100,12.35,US,1681759874
456,itaituba,-4.2761,-55.9836,34.09,59,40,1.54,BR,1681759874
457,makuyuni,-4.7333,38.1,21.28,97,14,2.26,TZ,1681759875
458,kenai,60.5544,-151.2583,2.05,55,20,2.57,US,1681759875
459,dongning,44.0622,131.1207,3.46,80,48,0.66,CN,1681759876
460,besuki,-7.7338,113.6979,25.28,83,48,1.29,ID,1681759877
461,okhotsk,59.3833,143.3,-8.81,88,7,4.77,RU,1681759877
462,caravelas,-17.7125,-39.2481,26.08,72,31,2.61,BR,1681759877
463,ibra,22.6906,58.5334,27.76,43,57,3.94,OM,1681759878
464,samarai,-10.6167,150.6667,26.6,74,100,1.9,PG,1681759878
465,pangody,65.85,74.4859,-15.08,98,99,2.66,RU,1681759878
466,tadine,-21.55,167.8833,26.22,88,100,4.68,NC,1681759428
467,mareeba,-17.0,145.4333,22.4,94,100,0.73,AU,1681759879
468,ulladulla,-35.35,150.4667,12.91,87,0,1.8,AU,1681759347
469,betul,21.9153,77.8961,28.06,21,7,1.44,IN,1681759880
470,winnemucca,40.973,-117.7357,12.92,18,100,10.66,US,1681759814
471,lompoc,34.6391,-120.4579,18.9,73,20,10.28,US,1681759477
472,jian,27.1172,114.9793,24.12,76,100,4.65,CN,1681759880
473,ulaangom,49.9811,92.0667,6.99,35,52,4.66,MN,1681759881
474,eureka,40.8021,-124.1637,12.57,66,100,4.92,US,1681759633
475,ostrovnoy,68.0531,39.5131,-7.94,88,97,2.89,RU,1681759881
476,northam,51.0333,-4.2167,13.12,86,82,2.83,GB,1681759254
477,dangara,29.6799,75.8931,30.26,22,89,2.34,IN,1681759882
478,mwinilunga,-11.7358,24.4293,15.62,97,30,1.9,ZM,1681759882
479,newton,42.337,-71.2092,14.41,93,100,5.14,US,1681759818
480,port moresby,-9.4431,147.1797,24.18,86,100,1.57,PG,1681759886
481,tilichiki,60.4667,166.1,-0.51,98,100,11.41,RU,1681759887
482,coquimbo,-29.9533,-71.3436,17.85,67,0,5.66,CL,1681759398
483,ivdel,60.6911,60.4206,-0.03,99,100,1.41,RU,1681759887
484,esna,25.2934,32.554,27.77,10,0,3.05,EG,1681759887
485,bandarbeyla,9.4942,50.8122,27.57,71,1,3.78,SO,1681759888
486,nambucca heads,-30.65,153.0,18.0,69,100,2.72,AU,1681759888
487,kadiri,14.1167,78.1667,26.91,28,0,2.27,IN,1681759889
488,kyabe,9.4515,18.9449,33.13,31,41,2.03,TD,1681759890
489,yekaterinoslavka,50.3734,129.1139,4.61,51,97,4.78,RU,1681759890
490,pyaozerskiy,65.8333,31.1667,-0.78,96,90,2.9,RU,1681759891
491,camargo,27.6667,-105.1667,29.44,18,1,3.08,MX,1681759892
492,mahabad,36.7631,45.7222,10.34,77,49,0.66,IR,1681759893
493,sao desiderio,-12.3633,-44.9733,31.96,44,13,0.96,BR,1681759893
494,vao,-22.6667,167.4833,26.29,86,100,3.39,NC,1681759893
495,dangriga,16.9692,-88.2321,27.06,74,100,4.13,BZ,1681759894
496,sorland,67.667,12.6934,5.92,86,85,5.01,NO,1681759894
497,nyagan,62.1406,65.3936,-16.79,99,67,1.62,RU,1681759351
498,payson,40.0444,-111.7321,20.78,23,75,4.02,US,1681759819
499,mnogovershinnyy,53.9353,139.9242,-9.72,93,29,1.39,RU,1681759895
500,tagusao,9.1924,117.8141,26.23,84,94,2.17,PH,1681759895
501,makinsk,52.6292,70.4169,-4.74,42,1,3.69,KZ,1681759895
502,klaksvik,62.2266,-6.589,10.51,98,100,7.44,FO,1681759345
503,ossora,59.2353,163.0719,0.46,99,100,6.22,RU,1681759896
504,ustye,59.6304,39.736,4.01,77,10,1.38,RU,1681759896
505,demidov,55.2706,31.515,8.37,81,100,1.63,RU,1681759896
506,juneau,58.3019,-134.4197,6.23,91,100,0.0,US,1681759897
507,beloha,-25.1667,45.05,20.92,74,0,5.36,MG,1681759897
508,nome,64.5011,-165.4064,-15.96,72,0,0.0,US,1681759897
509,miesbach,47.789,11.8338,8.32,95,61,0.53,DE,1681759898
510,acatari,46.4798,24.6332,11.03,77,75,2.68,RO,1681759898
511,balaipungut,1.05,101.2833,24.57,96,100,0.66,ID,1681759898
512,ostrov,57.3439,28.3537,5.85,79,61,2.38,RU,1681759898
513,rovaniemi,66.5,25.7167,6.67,56,0,2.57,FI,1681759664
514,buala,-8.145,159.5921,25.43,76,72,2.41,SB,1681759899
515,asola,45.2211,10.4136,15.43,77,17,2.42,IT,1681759899
516,juli,-16.2167,-69.45,11.78,50,50,3.31,PE,1681759899
517,murgab,37.4966,61.9714,8.93,43,75,2.06,TM,1681759900
518,arenapolis,-14.4503,-56.8461,31.01,67,98,0.91,BR,1681759900
519,carauari,-4.8828,-66.8958,27.91,85,100,1.17,BR,1681759900
520,baiyin,36.5583,104.2081,14.11,30,4,1.1,CN,1681759370
521,margherita,27.2833,95.6833,24.33,39,26,1.12,IN,1681759900
522,pangnirtung,66.1451,-65.7125,-12.22,96,89,1.83,CA,1681759901
523,shuangcheng,45.35,126.2833,9.82,55,100,8.06,CN,1681759901
524,cockburn town,21.4612,-71.1419,26.98,65,40,5.14,TC,1681759901
525,galbshtadt,53.2264,78.9845,-5.02,42,3,5.37,RU,1681759901
526,khon kaen,16.5,102.0833,29.25,53,4,1.65,TH,1681759902
527,bara,10.3744,10.7288,32.52,29,96,2.09,NG,1681759902
528,chimbote,-9.0853,-78.5783,26.63,73,100,4.28,PE,1681759902
529,aurad,18.25,77.4333,30.93,29,75,1.38,IN,1681759902
530,santa cruz,-17.8,-63.1667,23.7,88,75,4.12,BO,1681759202
531,san carlos de bariloche,-41.1456,-71.3082,9.86,43,75,13.38,AR,1681759748
532,port blair,11.6667,92.75,27.83,76,67,1.03,IN,1681759350
533,urubicha,-15.3833,-62.95,29.28,70,95,1.79,BO,1681759903
534,miedzyrzecz,52.4446,15.578,8.15,82,98,4.02,PL,1681759903
535,namatanai,-3.6667,152.4333,25.69,80,56,2.02,PG,1681759904
536,kushiro,42.975,144.3747,1.26,69,94,2.82,JP,1681759822
537,lethem,3.3803,-59.7968,32.52,45,97,1.83,GY,1681759904
538,berlevag,70.8578,29.0864,4.0,81,75,7.2,NO,1681759904
539,horsham,51.064,-0.3272,11.84,74,0,5.14,GB,1681759904
540,abu dhabi,24.4667,54.3667,26.64,53,0,2.57,AE,1681759383
541,paamiut,61.994,-49.6678,-1.26,82,100,10.13,GL,1681759905
542,hirara,24.8,125.2833,21.92,88,20,5.14,JP,1681759905
543,elat,29.5581,34.9482,27.91,44,20,1.54,IL,1681759905
544,tarija,-21.5355,-64.7296,20.95,56,75,4.12,BO,1681759905
545,bakchar,57.0186,82.0711,-12.98,87,100,3.83,RU,1681759906
546,sorong,-0.8833,131.25,26.64,80,100,0.37,ID,1681759410
547,jibuti,11.5,42.5,24.47,76,12,5.87,DJ,1681759906
548,kununurra,-15.7667,128.7333,15.99,88,81,0.0,AU,1681759397
549,dondo,-19.6094,34.7431,22.73,88,0,1.59,MZ,1681759906
550,saint-georges,12.0564,-61.7485,29.82,62,20,8.23,GD,1681759735
551,los llanos de aridane,28.6585,-17.9182,17.86,81,75,7.72,ES,1681759906
552,geilo,60.5333,8.2076,0.94,86,22,2.08,NO,1681759907
553,rocha,-34.4833,-54.3333,17.7,43,2,4.27,UY,1681759710
554,arman,59.7,150.1667,-6.09,79,96,4.39,RU,1681759907
555,ambilobe,-13.2,49.05,23.21,93,37,1.48,MG,1681759907
556,assiniboia,49.6334,-105.9845,12.9,38,100,1.03,CA,1681759907
557,san pedro,14.35,121.0167,27.57,83,40,0.51,PH,1681759908
558,chimoio,-19.1164,33.4833,15.38,90,0,0.63,MZ,1681759908
